City,Country,Date,Latitude,Longitude,Humidity,Pressure,Max_Temp,Cloudiness,Wind_Speed
Saint Paul Harbor,US,2020-07-22 22:19:13,57.79,-152.41,45,1014,66.2,20,8.2
Busselton,AU,2020-07-22 22:19:28,-33.65,115.33,52,1009,57.0,37,9.34
Mataura,NZ,2020-07-22 22:21:38,-46.19,168.86,83,1011,39.0,95,1.34
East London,ZA,2020-07-22 22:17:41,-33.02,27.91,41,1024,63.61,0,2.81
Hazorasp,UZ,2020-07-22 22:24:51,41.32,61.07,54,1003,78.8,40,2.1
Hithadhoo,MV,2020-07-22 22:17:22,-0.6,73.08,70,1007,83.46,59,2.4
New Norfolk,AU,2020-07-22 22:17:42,-42.78,147.06,88,1022,42.01,73,1.2
Vaini,TO,2020-07-22 22:17:49,-21.2,-175.2,73,1020,75.2,75,2.6
São Filipe,CV,2020-07-22 22:19:28,14.9,-24.5,85,1012,78.26,99,2.94
Cape Town,ZA,2020-07-22 22:21:40,-33.93,18.42,100,1023,55.0,0,1.0
Hobart,AU,2020-07-22 22:18:20,-42.88,147.33,75,1022,43.0,75,3.6
Lyngseidet,NO,2020-07-22 22:24:52,69.58,20.22,87,1010,50.0,75,13.4
Coquimbo,CL,2020-07-22 22:17:56,-29.95,-71.34,67,1019,57.2,40,6.2
Biltine,TD,2020-07-22 22:24:53,14.53,20.92,71,1010,77.77,100,12.76
Qaanaaq,GL,2020-07-22 22:17:32,77.48,-69.36,53,1014,47.84,0,0.5
Chancay,PE,2020-07-22 22:24:53,-11.57,-77.27,77,1014,62.6,75,2.6
Stege,DK,2020-07-22 22:24:53,54.99,12.28,1,1017,60.01,100,5.6
Tamala,RU,2020-07-22 22:24:53,52.54,43.25,96,1006,58.6,0,3.98
Smithers,CA,2020-07-22 22:24:53,54.78,-127.17,59,1009,62.6,75,2.96
Slave Lake,CA,2020-07-22 22:24:00,55.28,-114.77,72,1006,68.0,20,2.1
Ushuaia,AR,2020-07-22 22:17:21,-54.8,-68.3,64,1023,35.6,95,2.1
Perevoz,RU,2020-07-22 22:24:54,55.6,44.54,94,1003,58.73,62,2.56
Jamestown,US,2020-07-22 22:17:49,42.1,-79.24,73,1017,79.0,20,5.7
Barrow,US,2020-07-22 22:17:29,71.29,-156.79,81,1014,42.8,90,5.1
Dikson,RU,2020-07-22 22:18:58,73.51,80.55,92,1023,39.99,41,3.47
Soe,ID,2020-07-22 22:20:33,-9.86,124.28,95,1012,58.98,99,2.24
Tsagan Aman,RU,2020-07-22 22:24:55,47.56,46.72,39,1008,75.43,23,3.67
Qasigiannguit,GL,2020-07-22 22:24:55,68.82,-51.19,58,1007,53.6,40,1.5
Nizwá,OM,2020-07-22 22:24:55,22.93,57.53,73,1002,78.93,86,3.9
Iracoubo,GF,2020-07-22 22:20:31,5.48,-53.2,84,1010,78.98,88,3.43
Arrondissement de Bastia,FR,2020-07-22 22:24:55,42.67,9.33,73,1016,77.0,0,1.5
Cockburn Town,TC,2020-07-22 22:16:26,21.46,-71.14,78,1015,83.61,19,9.42
Talnakh,RU,2020-07-22 22:18:07,69.49,88.4,87,1015,50.0,0,10.0
Thompson,CA,2020-07-22 22:17:29,55.74,-97.86,47,1011,78.8,75,4.1
Chui,UY,2020-07-22 22:17:34,-33.7,-53.46,96,1013,64.51,100,3.38
Ribeira Grande,PT,2020-07-22 22:17:30,38.52,-28.7,70,1028,70.54,28,1.25
Skoghall,SE,2020-07-22 22:24:56,59.32,13.47,81,1013,51.8,47,3.1
Grand-Santi,GF,2020-07-22 22:24:56,4.25,-54.38,94,1009,75.22,98,1.23
Gela,IT,2020-07-22 22:24:56,37.08,14.23,68,1016,73.99,0,2.6
Avarua,CK,2020-07-22 22:16:06,-21.21,-159.78,94,1018,77.0,6,5.1
Strai,NO,2020-07-22 22:24:57,58.2,7.9,66,1016,55.99,5,2.6
Punta Arenas,CL,2020-07-22 22:17:03,-53.15,-70.92,100,1028,28.0,20,3.1
Tazovsky,RU,2020-07-22 22:24:57,67.47,78.7,80,1016,44.26,0,6.55
College,US,2020-07-22 22:19:18,64.86,-147.8,77,1013,59.0,75,2.6
Albany,US,2020-07-22 22:17:28,42.6,-73.97,75,1012,84.99,72,0.45
Rikitea,PF,2020-07-22 22:17:21,-23.12,-134.97,59,1022,66.97,100,6.22
Oranjemund,NA,2020-07-22 22:23:35,-28.55,16.43,69,1020,59.04,0,0.71
Ilulissat,GL,2020-07-22 22:19:12,69.22,-51.1,58,1007,53.6,40,1.5
Omaruru,NA,2020-07-22 22:24:58,-21.43,15.93,36,1021,54.99,0,4.09
Norman Wells,CA,2020-07-22 22:17:38,65.28,-126.83,76,1012,57.2,75,6.2
Bariloche,AR,2020-07-22 22:24:58,-41.15,-71.31,80,1030,30.2,90,3.1
Lebu,CL,2020-07-22 22:19:36,-37.62,-73.65,81,1021,50.4,32,1.21
Puerto Ayora,EC,2020-07-22 22:17:37,-0.74,-90.35,61,1012,78.8,40,9.3
Yatou,CN,2020-07-22 22:24:59,37.15,122.38,94,1000,70.07,100,10.26
Tagusao,PH,2020-07-22 22:20:32,9.19,117.81,81,1007,79.99,80,3.14
Beringovskiy,RU,2020-07-22 22:19:42,63.05,179.32,78,1019,49.24,0,4.06
Kruisfontein,ZA,2020-07-22 22:20:32,-34.0,24.73,42,1022,57.04,0,2.67
Plastun,RU,2020-07-22 22:24:59,44.76,136.29,90,1014,63.41,100,1.19
Port Alfred,ZA,2020-07-22 22:17:32,-33.59,26.89,69,1023,63.19,0,4.22
Mount Isa,AU,2020-07-22 22:19:11,-20.73,139.5,37,1018,55.4,0,2.6
Nishihara,JP,2020-07-22 22:24:04,26.18,127.76,83,1012,84.2,75,2.6
La Ronge,CA,2020-07-22 22:25:00,55.1,-105.28,47,1006,80.6,75,5.1
Atuona,PF,2020-07-22 22:17:33,-9.8,-139.03,73,1014,79.63,1,7.89
Muros,ES,2020-07-22 22:19:21,42.78,-9.06,74,1018,71.01,1,3.13
Susanville,US,2020-07-22 22:25:00,40.42,-120.65,14,1012,84.99,1,8.2
Severo-Kuril'sk,RU,2020-07-22 22:18:52,50.68,156.12,84,1018,52.29,34,0.52
Anadyr,RU,2020-07-22 22:20:15,64.75,177.48,71,1019,55.4,2,4.0
Bonfim,BR,2020-07-22 22:25:01,3.08,-59.95,81,1009,80.46,100,0.58
Vostok,RU,2020-07-22 22:25:01,46.49,135.88,94,1013,64.11,97,0.5
Longyearbyen,SJ,2020-07-22 22:18:01,78.22,15.64,75,1012,46.4,75,6.2
Tasiilaq,GL,2020-07-22 22:19:05,65.61,-37.64,86,1016,41.0,35,2.6
Narva-Jõesuu,EE,2020-07-22 22:25:02,59.46,28.04,67,1003,59.38,36,8.71
Matveyevka,RU,2020-07-22 22:25:02,52.15,56.18,100,1002,60.8,40,5.0
Brae,GB,2020-07-22 22:17:30,60.4,-1.35,87,1016,55.4,61,5.1
Canyon,US,2020-07-22 22:24:34,34.98,-101.92,41,1007,93.0,15,4.02
Polunochnoye,RU,2020-07-22 22:25:02,60.87,60.42,79,1013,55.53,41,1.12
Hilo,US,2020-07-22 22:14:50,19.73,-155.09,51,1017,86.0,75,4.6
Itaituba,BR,2020-07-22 22:19:46,-4.28,-55.98,46,1008,93.2,20,0.59
Oriximiná,BR,2020-07-22 22:25:03,-1.77,-55.87,76,1008,81.59,91,1.16
Upernavik,GL,2020-07-22 22:19:44,72.79,-56.15,69,1011,47.17,0,5.65
Laas,IT,2020-07-22 22:19:37,46.62,10.7,100,1022,62.01,75,0.79
Kapaa,US,2020-07-22 22:21:43,22.08,-159.32,83,1017,82.0,75,4.1
Cabo San Lucas,MX,2020-07-22 22:16:12,22.89,-109.91,69,1013,91.99,40,8.7
Uspenka,UA,2020-07-22 22:25:04,48.39,39.16,67,1013,63.55,10,4.26
Kieta,PG,2020-07-22 22:25:04,-6.22,155.63,73,1011,81.95,80,2.32
Bluff,NZ,2020-07-22 22:17:54,-46.6,168.33,83,1011,39.0,97,1.34
Tura,IN,2020-07-22 22:17:39,25.52,90.22,98,1001,73.8,100,2.18
Ahipara,NZ,2020-07-22 22:17:50,-35.17,173.17,73,1018,58.37,51,6.78
Hong Kong,HK,2020-07-22 22:15:24,22.29,114.16,79,1009,84.0,57,2.51
Hermanus,ZA,2020-07-22 22:17:42,-34.42,19.23,92,1021,53.01,0,2.16
Port Elizabeth,ZA,2020-07-22 22:17:58,-33.92,25.57,100,1022,57.2,40,2.1
Kaitangata,NZ,2020-07-22 22:17:21,-46.28,169.85,74,995,39.99,43,6.71
Port Blair,IN,2020-07-22 22:19:33,11.67,92.75,100,1006,77.0,75,1.0
Promissão,BR,2020-07-22 22:25:05,-21.54,-49.86,51,1015,72.61,0,3.46
Castro,BR,2020-07-22 22:17:42,-24.79,-50.01,74,1018,60.03,97,0.89
Rocha,UY,2020-07-22 22:23:32,-34.48,-54.33,96,1012,66.76,100,3.19
George Town,MY,2020-07-22 22:16:47,5.41,100.34,88,1008,78.8,20,3.0
Urengoy,RU,2020-07-22 22:25:06,65.97,78.37,78,1014,48.65,15,6.9
Khatanga,RU,2020-07-22 22:19:26,71.97,102.5,80,1015,46.87,100,6.81
Egvekinot,RU,2020-07-22 22:17:51,66.32,-179.17,58,1016,57.16,81,1.76
Vestmannaeyjar,IS,2020-07-22 22:19:44,63.44,-20.27,87,1012,53.6,40,2.6
Alvarães,BR,2020-07-22 22:25:07,-3.22,-64.8,88,1009,80.6,20,1.0
Baghlan,AF,2020-07-22 22:25:07,36.13,68.71,19,1006,80.85,0,0.73
Catuday,PH,2020-07-22 22:25:07,16.29,119.81,82,1008,81.45,1,2.77
Omboué,GA,2020-07-22 22:23:41,-1.57,9.26,82,1014,72.99,22,2.9
Rivera,UY,2020-07-22 22:25:07,-30.91,-55.55,86,1012,68.86,100,2.76
Bengkulu,ID,2020-07-22 22:17:36,-3.8,102.27,88,1009,73.94,90,1.98
Suzun,RU,2020-07-22 22:25:08,53.78,82.31,95,1008,52.9,5,1.2
Campo Grande,BR,2020-07-22 22:25:08,-20.44,-54.65,40,1015,73.4,36,3.6
Bilma,NE,2020-07-22 22:13:06,18.69,12.92,26,1006,92.07,21,3.02
Kamenka,RU,2020-07-22 22:19:27,51.32,42.77,87,1000,64.99,0,4.02
Airai,TL,2020-07-22 22:17:34,-8.93,125.41,53,1012,53.53,94,1.9
Butaritari,KI,2020-07-22 22:15:06,3.07,172.79,75,1010,83.59,63,6.45
Codrington,AU,2020-07-22 22:25:09,-38.27,141.97,80,1028,47.03,100,1.79
Paka,MY,2020-07-22 22:25:09,4.64,103.44,94,1008,77.0,70,1.42
Honningsvåg,NO,2020-07-22 22:20:42,70.98,25.97,100,1008,48.2,90,4.6
Ponta do Sol,PT,2020-07-22 22:18:51,32.67,-17.1,72,1020,69.01,2,1.16
Monduli,TZ,2020-07-22 22:25:09,-3.3,36.45,93,1021,60.8,20,5.1
Nioro,GM,2020-07-22 22:25:09,13.35,-15.75,81,1012,79.61,90,4.09
Ol'ga,RU,2020-07-22 22:25:10,43.74,135.29,88,1014,64.29,100,1.67
Nikolskoye,RU,2020-07-22 22:17:23,59.7,30.79,67,1001,59.0,1,4.0
Alyangula,AU,2020-07-22 22:25:10,-13.85,136.42,100,1013,64.4,40,1.5
Bredasdorp,ZA,2020-07-22 22:19:10,-34.53,20.04,93,1023,57.2,0,0.5
Najrān,SA,2020-07-22 22:18:00,17.49,44.13,14,1006,91.4,75,2.1
North Bend,US,2020-07-22 22:16:29,43.41,-124.22,77,1014,78.01,75,6.2
Faanui,PF,2020-07-22 22:17:39,-16.48,-151.75,79,1017,77.27,29,8.23
Qaqortoq,GL,2020-07-22 22:21:04,60.72,-46.03,25,1002,66.2,76,14.4
Ancud,CL,2020-07-22 22:19:54,-41.87,-73.82,70,1027,48.99,78,2.1
Saint Anthony,US,2020-07-22 22:25:11,45.02,-93.22,64,1018,68.0,90,3.1
Yellowknife,CA,2020-07-22 22:15:59,62.46,-114.35,93,1001,66.99,90,4.6
Belmonte,BR,2020-07-22 22:19:27,-15.86,-38.88,60,1018,73.4,0,2.1
Vila Velha,BR,2020-07-22 22:19:15,-20.33,-40.29,83,1018,77.0,0,4.1
Yulara,AU,2020-07-22 22:20:03,-25.24,130.99,80,1023,41.0,0,2.6
Shenyang,CN,2020-07-22 22:25:12,41.79,123.43,100,1009,73.4,69,1.0
Souillac,MU,2020-07-22 22:18:54,-20.52,57.52,68,1018,69.8,75,5.1
Hobyo,SO,2020-07-22 22:25:12,5.35,48.53,77,1009,76.86,18,12.24
Voloshka,RU,2020-07-22 22:25:13,61.33,40.09,96,998,56.95,95,3.5
Galle,LK,2020-07-22 22:25:13,6.04,80.22,88,1006,79.34,92,2.74
Bagn,NO,2020-07-22 22:25:13,60.82,9.55,73,1020,41.0,41,0.37
Paphos,CY,2020-07-22 22:25:14,34.77,32.42,73,1002,73.4,0,2.6
Gouré,NE,2020-07-22 22:25:14,13.98,10.27,63,1009,84.99,71,0.89
Tuatapere,NZ,2020-07-22 22:18:55,-46.13,167.68,83,1011,39.0,89,1.34
Dubuque,US,2020-07-22 22:25:14,42.48,-90.87,57,1016,80.6,1,5.1
Amazar,RU,2020-07-22 22:25:14,53.86,120.88,78,1007,60.37,100,0.27
Carnarvon,AU,2020-07-22 22:17:36,-24.87,113.63,100,1018,57.2,0,3.6
Cabra,ES,2020-07-22 22:25:15,37.47,-4.44,43,1017,82.0,0,2.04
Ust-Maya,RU,2020-07-22 22:25:15,60.42,134.53,60,1015,60.28,85,4.39
Wattegama,LK,2020-07-22 22:25:15,6.8,81.48,100,1007,77.0,40,1.5
Sibu,MY,2020-07-22 22:25:15,2.3,111.82,94,1008,73.4,40,1.0
Moyale,KE,2020-07-22 22:25:15,3.52,39.06,66,1011,69.4,82,5.77
Cuamba,MZ,2020-07-22 22:25:16,-14.8,36.54,79,1021,60.04,30,3.66
Constitución,CL,2020-07-22 22:18:56,-35.33,-72.42,76,1020,50.38,21,0.82
Katangli,RU,2020-07-22 22:18:50,51.71,143.23,93,1018,50.2,100,5.39
Khovd,MN,2020-07-22 22:25:16,48.01,91.64,70,1006,60.19,5,1.41
Lavrentiya,RU,2020-07-22 22:19:26,65.58,-171.0,59,1018,51.44,0,2.19
Cabedelo,BR,2020-07-22 22:24:06,-6.98,-34.83,78,1014,75.2,1,4.1
Seoul,KR,2020-07-22 22:14:12,37.57,126.98,100,1010,71.6,75,1.1
São João do Paraíso,BR,2020-07-22 22:25:17,-15.31,-42.01,54,1018,63.09,0,3.49
Wilmington,US,2020-07-22 22:21:28,34.23,-77.94,46,1019,93.2,1,5.7
Bakel,SN,2020-07-22 22:25:17,14.9,-12.46,45,1009,91.6,36,0.77
Semey,KZ,2020-07-22 22:25:17,50.41,80.23,66,1008,61.05,18,2.34
Kutum,SD,2020-07-22 22:19:27,14.2,24.67,72,1010,72.55,69,9.15
Görele,TR,2020-07-22 22:25:18,41.03,39.0,73,1013,73.4,40,3.1
Iroquois Falls,CA,2020-07-22 22:25:18,48.77,-80.68,68,1016,68.0,90,1.5
Grivenskaya,RU,2020-07-22 22:25:18,45.65,38.18,70,1013,69.42,0,3.09
Bulgan,MN,2020-07-22 22:25:18,48.81,103.53,86,1000,59.27,100,1.93
Dingle,PH,2020-07-22 22:19:34,11.0,122.67,88,1008,76.6,68,1.87
Miramar,US,2020-07-22 22:25:19,25.99,-80.23,94,1017,80.01,75,3.1
Te Anau,NZ,2020-07-22 22:20:00,-45.42,167.72,81,1003,36.25,52,1.45
San Cristobal,VE,2020-07-22 22:19:28,7.77,-72.22,55,1012,86.0,40,3.6
Geraldton,AU,2020-07-22 22:20:45,-28.77,114.6,87,1019,59.0,90,2.1
Port Hueneme,US,2020-07-22 22:25:20,34.15,-119.2,77,1012,75.0,90,4.6
Okhotsk,RU,2020-07-22 22:18:03,59.38,143.3,66,1019,58.41,25,1.84
Yar-Sale,RU,2020-07-22 22:25:20,66.83,70.83,81,1020,45.12,53,3.41
Chokurdakh,RU,2020-07-22 22:17:25,70.63,147.92,41,1008,83.61,69,2.1
Roncesvalles,CO,2020-07-22 22:25:20,4.01,-75.6,74,1016,80.6,75,4.1
Kursavka,RU,2020-07-22 22:25:21,44.46,42.51,72,1013,69.01,1,4.0
Clyde River,CA,2020-07-22 22:19:47,70.47,-68.59,81,1013,46.4,90,1.0
Ambulu,ID,2020-07-22 22:25:21,-8.35,113.61,89,1010,71.76,54,1.9
Vila Franca do Campo,PT,2020-07-22 22:17:59,37.72,-25.43,68,1028,68.0,40,2.1
Canutama,BR,2020-07-22 22:25:21,-6.53,-64.38,54,1007,84.4,88,0.71
Huarmey,PE,2020-07-22 22:24:18,-10.07,-78.15,72,1014,64.98,0,4.72
Cherskiy,RU,2020-07-22 22:19:23,68.75,161.3,31,1012,77.0,100,5.14
Nanortalik,GL,2020-07-22 22:18:47,60.14,-45.24,65,1005,52.0,100,6.14
Cidreira,BR,2020-07-22 22:19:47,-30.18,-50.21,70,1016,66.69,92,3.71
Provideniya,RU,2020-07-22 22:17:43,64.38,-173.3,87,1019,48.2,0,4.0
Porto Seguro,BR,2020-07-22 22:25:12,-16.45,-39.06,60,1018,73.4,0,2.1
Saint George,US,2020-07-22 22:18:57,37.1,-113.58,16,1010,98.6,1,4.6
Tuktoyaktuk,CA,2020-07-22 22:18:53,69.45,-133.04,87,1016,44.6,90,4.1
Mount Gambier,AU,2020-07-22 22:17:52,-37.83,140.77,100,1028,42.8,90,1.0
Vardø,NO,2020-07-22 22:18:04,70.37,31.11,93,1004,53.6,40,1.0
Sitka,US,2020-07-22 22:19:00,57.05,-135.33,72,1014,60.8,75,2.45
Da Lat,VN,2020-07-22 22:25:23,11.95,108.44,100,1009,59.18,93,0.59
Gebre Guracha,ET,2020-07-22 22:25:23,9.8,38.4,100,1012,52.93,100,1.44
Tirumullaivāsal,IN,2020-07-22 22:25:24,11.23,79.83,79,1005,81.46,99,5.72
Cayenne,GF,2020-07-22 22:19:30,4.93,-52.33,100,1011,75.2,97,1.0
Bandarbeyla,SO,2020-07-22 22:18:45,9.49,50.81,79,1005,76.82,16,13.84
Moses Lake,US,2020-07-22 22:20:26,47.13,-119.28,24,1005,93.2,1,6.7
Saskylakh,RU,2020-07-22 22:17:48,71.92,114.08,94,1010,45.3,100,5.12
Kathmandu,NP,2020-07-22 22:23:34,27.72,85.32,100,1009,69.8,75,1.0
Batagay-Alyta,RU,2020-07-22 22:20:58,67.8,130.41,53,1010,67.12,0,1.81
Sindor,RU,2020-07-22 22:25:25,62.86,51.89,72,1008,62.51,100,3.19
Saint-Philippe,RE,2020-07-22 22:17:31,-21.36,55.77,52,1018,68.0,40,4.1
Mabiton,PH,2020-07-22 22:25:25,12.83,123.26,78,1008,83.1,0,4.3
San Isidro,PE,2020-07-22 22:21:14,-12.12,-77.05,77,1014,62.6,75,2.6
Kayanga,TZ,2020-07-22 22:25:25,-1.53,31.15,54,1013,66.0,92,0.75
Prince Albert,CA,2020-07-22 22:25:25,53.2,-105.77,54,1007,82.4,75,5.7
Belyy Yar,RU,2020-07-22 22:25:26,53.6,91.39,93,1007,57.2,42,1.0
Leninsk,RU,2020-07-22 22:25:26,48.71,45.2,60,1008,68.0,17,4.0
Pisco,PE,2020-07-22 22:17:24,-13.7,-76.22,68,1014,68.0,0,1.5
Mackenzie,CA,2020-07-22 22:25:26,55.3,-123.17,68,1007,66.2,75,2.6
Dakar,SN,2020-07-22 22:16:23,14.69,-17.44,78,1012,82.4,20,3.1
Assiut,EG,2020-07-22 22:20:14,27.18,31.18,42,1005,83.16,0,5.9
Muskegon,US,2020-07-22 22:22:51,43.3,-86.13,65,1014,82.4,75,3.6
Rome,US,2020-07-22 22:25:27,43.21,-75.46,83,1015,75.2,75,3.1
Nymburk,CZ,2020-07-22 22:25:27,50.19,15.04,55,1018,62.6,45,1.5
Derzhavīnsk,KZ,2020-07-22 22:25:27,51.1,66.32,56,1003,69.78,100,9.03
Jiaojiang,CN,2020-07-22 22:25:27,28.68,121.44,51,1008,81.0,99,2.58
Wanning,CN,2020-07-22 22:25:27,18.8,110.4,82,1008,80.2,0,2.42
Arraial do Cabo,BR,2020-07-22 22:17:43,-22.97,-42.03,94,1017,71.6,0,3.1
Bud,US,2020-07-22 22:25:28,39.45,-86.18,66,1015,84.2,40,4.1
Kembé,CF,2020-07-22 22:25:28,4.62,21.89,89,1013,70.2,100,1.25
Maceió,BR,2020-07-22 22:18:03,-9.67,-35.74,88,1016,73.4,75,3.6
Oliva,ES,2020-07-22 22:25:28,38.92,-0.12,74,1017,78.01,0,1.34
Gwembe,ZM,2020-07-22 22:25:28,-16.5,27.61,58,1020,52.92,0,0.37
Warmbad,NA,2020-07-22 22:25:29,-28.45,18.73,26,1022,62.42,0,5.72
Saint-Pierre,RE,2020-07-22 22:20:48,-21.34,55.48,52,1018,68.0,40,4.1
Udachny,RU,2020-07-22 22:25:23,66.42,112.4,93,1000,55.4,90,4.0
Srednekolymsk,RU,2020-07-22 22:17:31,67.45,153.68,32,1010,79.23,89,3.63
Goderich,CA,2020-07-22 22:25:29,43.75,-81.72,81,1011,80.01,2,2.78
Indramayu,ID,2020-07-22 22:25:30,-6.33,108.32,80,1009,77.25,56,3.28
Caucayá,CO,2020-07-22 22:23:14,-0.19,-74.78,91,1008,79.54,77,0.83
Nísia Floresta,BR,2020-07-22 22:20:07,-6.09,-35.21,78,1013,77.0,75,3.6
Colac,AU,2020-07-22 22:25:30,-38.33,143.58,99,979,42.01,96,1.5
Sur,OM,2020-07-22 22:25:30,22.57,59.53,73,1002,83.82,51,9.01
Port Lincoln,AU,2020-07-22 22:24:22,-34.73,135.87,84,1026,48.31,1,4.21
Ubatuba,BR,2020-07-22 22:25:30,-23.43,-45.07,49,1018,71.6,1,1.19
Aklavik,CA,2020-07-22 22:19:57,68.22,-135.01,61,1017,50.0,75,1.5
Inhambane,MZ,2020-07-22 22:25:31,-23.86,35.38,74,1025,63.61,21,3.91
Chikwawa,MW,2020-07-22 22:25:31,-16.03,34.8,73,1022,62.35,12,2.31
Torbay,CA,2020-07-22 22:17:23,47.67,-52.73,53,1014,72.0,75,7.2
Arys,KZ,2020-07-22 22:25:31,42.43,68.8,33,1003,77.0,100,5.0
Angoche,MZ,2020-07-22 22:25:31,-16.23,39.91,76,1018,69.48,44,4.61
Davila,PH,2020-07-22 22:25:31,18.47,120.58,80,1009,82.11,57,2.37
‘Āhuimanu,US,2020-07-22 22:25:32,21.44,-157.84,62,1016,84.2,20,4.6
Chokwé,MZ,2020-07-22 22:25:32,-24.53,32.98,75,1026,58.23,0,1.85
Wawa,NG,2020-07-22 22:21:21,9.9,4.42,84,1012,76.48,82,2.15
Kirkenes,NO,2020-07-22 22:25:32,69.73,30.05,93,1004,53.6,75,4.6
Nowy Sącz,PL,2020-07-22 22:25:32,49.62,20.7,84,951,57.99,26,0.65
Touros,BR,2020-07-22 22:23:37,-5.2,-35.46,78,1013,77.0,75,3.6
Sikonge,TZ,2020-07-22 22:25:33,-5.63,32.77,63,1016,66.2,6,1.81
Walvis Bay,NA,2020-07-22 22:25:33,-22.96,14.51,28,1017,71.6,0,6.2
Tha Maka,TH,2020-07-22 22:25:33,13.9,99.77,80,1012,73.99,100,0.91
Mahébourg,MU,2020-07-22 22:19:35,-20.41,57.7,68,1018,69.8,75,5.1
Mabaruma,GY,2020-07-22 22:21:21,8.2,-59.78,84,1010,78.71,68,1.97
Cap Malheureux,MU,2020-07-22 22:25:34,-19.98,57.61,62,1017,66.0,48,1.34
Coyhaique,CL,2020-07-22 22:14:39,-45.58,-72.07,74,1035,33.8,75,2.1
Panama City,PA,2020-07-22 22:25:05,8.99,-79.52,78,1009,82.4,40,2.6
Nhulunbuy,AU,2020-07-22 22:25:16,-12.23,136.77,94,1013,71.6,40,3.1
Gigmoto,PH,2020-07-22 22:25:34,13.78,124.39,79,1009,81.79,14,2.1
Bambous Virieux,MU,2020-07-22 22:19:20,-20.34,57.76,68,1018,69.8,75,5.1
Esperance,AU,2020-07-22 22:18:57,-33.87,121.9,58,1013,55.4,40,6.2
Altamira,BR,2020-07-22 22:25:35,-3.2,-52.21,70,1009,84.2,75,1.0
Hamilton,US,2020-07-22 22:19:04,39.18,-84.53,69,1016,82.99,75,2.6
Tsimmerbude,RU,2020-07-22 22:25:36,54.67,20.13,93,1015,50.0,20,3.0
Guerrero Negro,MX,2020-07-22 22:21:31,27.98,-114.06,55,1009,77.2,4,6.5
Haines Junction,CA,2020-07-22 22:17:57,60.75,-137.51,50,1010,63.86,96,2.74
Casablanca,MA,2020-07-22 22:14:38,33.59,-7.62,88,1018,75.0,40,3.1
Kailua,US,2020-07-22 22:21:03,21.4,-157.74,62,1016,84.2,20,4.6
Druskininkai,LT,2020-07-22 22:25:37,54.02,23.97,93,1016,49.57,0,2.37
Kuching,MY,2020-07-22 22:24:34,1.55,110.33,100,1008,73.4,20,1.5
Abéché,TD,2020-07-22 22:25:37,13.83,20.83,83,1011,73.81,100,11.0
Mitha Tiwana,PK,2020-07-22 22:25:37,32.25,72.11,42,997,90.5,0,1.78
Fortuna,US,2020-07-22 22:19:23,40.6,-124.16,87,1012,63.0,75,7.7
Mar del Plata,AR,2020-07-22 22:15:25,-38.0,-57.56,100,1016,50.0,90,11.8
Marsh Harbour,BS,2020-07-22 22:20:19,26.54,-77.06,77,1017,83.86,80,7.37
Tulsīpur,NP,2020-07-22 22:25:38,28.13,82.3,93,1018,80.01,6,1.05
Taclobo,PH,2020-07-22 22:25:38,12.31,122.59,79,1008,83.28,15,4.11
Trincomalee,LK,2020-07-22 22:21:19,8.57,81.23,78,1005,80.13,97,4.45
Sinnamary,GF,2020-07-22 22:20:01,5.38,-52.95,85,1010,78.89,97,3.93
Aquiraz,BR,2020-07-22 22:25:39,-3.9,-38.39,74,1012,78.8,40,2.1
Opelousas,US,2020-07-22 22:25:39,30.53,-92.08,49,1014,93.2,40,2.6
Faya,SA,2020-07-22 22:19:07,18.39,42.45,49,1016,71.6,20,1.72
Kostomuksha,RU,2020-07-22 22:25:39,64.57,30.58,96,993,57.63,100,3.12
Gainesville,US,2020-07-22 22:25:39,29.65,-82.32,78,1019,82.4,40,2.94
Mossamedes,AO,2020-07-22 22:20:01,-15.2,12.15,68,1015,66.27,0,1.66
San Marcos,US,2020-07-22 22:25:40,33.14,-117.17,68,1012,82.0,90,4.6
Shimoda,JP,2020-07-22 22:19:01,34.67,138.95,90,1007,71.01,100,3.12
Iranshahr,IR,2020-07-22 22:25:40,27.2,60.68,52,1004,89.6,0,0.8
Alice Springs,AU,2020-07-22 22:18:54,-23.7,133.88,80,1023,33.8,0,2.6
Minzhu,CN,2020-07-22 22:25:41,43.73,127.34,72,1012,66.25,0,1.52
Mobaye,CF,2020-07-22 22:25:41,4.32,21.18,94,1012,70.7,100,0.92
Mukhen,RU,2020-07-22 22:25:41,48.1,136.1,82,1013,71.73,61,0.61
Klaksvík,FO,2020-07-22 22:19:39,62.23,-6.59,87,1017,48.2,98,2.1
Totness,SR,2020-07-22 22:25:41,5.88,-56.32,83,1009,79.86,93,3.94
Laï,TD,2020-07-22 22:25:41,9.4,16.3,80,1011,76.21,84,2.25
Artesia,US,2020-07-22 22:25:42,33.87,-118.08,53,1011,84.0,1,3.6
Palāsbāri,IN,2020-07-22 22:25:42,26.14,91.55,92,1003,77.2,100,0.22
Prince Rupert,CA,2020-07-22 22:18:02,54.32,-130.32,87,1013,59.0,40,3.1
Kavieng,PG,2020-07-22 22:18:03,-2.57,150.8,76,1010,83.44,33,6.49
Crestview,US,2020-07-22 22:25:42,30.76,-86.57,83,1017,84.0,75,0.89
Samaná,DO,2020-07-22 22:18:53,19.21,-69.34,83,1014,82.4,75,2.1
San Patricio,MX,2020-07-22 22:21:25,19.22,-104.7,74,1011,86.0,75,7.7
Ritíni,GR,2020-07-22 22:25:43,40.29,22.28,64,1011,79.0,21,1.01
Yaring,TH,2020-07-22 22:25:43,6.87,101.37,82,1007,77.22,100,2.19
Mitsamiouli,KM,2020-07-22 22:21:09,-11.38,43.28,63,1014,75.7,48,4.77
Ndélé,CF,2020-07-22 22:25:44,8.41,20.65,93,1012,71.58,100,1.15
Fukuechō,JP,2020-07-22 22:25:44,32.69,128.84,88,1009,79.34,96,3.32
Auki,SB,2020-07-22 22:25:44,-8.77,160.7,76,1011,81.64,95,2.72
Betūl,IN,2020-07-22 22:25:44,21.92,77.9,85,1003,75.58,98,1.62
Berea,US,2020-07-22 22:22:38,41.37,-81.85,69,1015,82.0,90,5.7
Homer,US,2020-07-22 22:20:05,59.64,-151.55,76,1013,55.4,90,4.6
Saravena,CO,2020-07-22 22:25:44,6.95,-71.88,88,1010,79.84,69,0.15
Sabha,LY,2020-07-22 22:25:45,27.04,14.43,24,1013,79.59,0,5.15
Ereymentau,KZ,2020-07-22 22:25:45,51.62,73.1,65,1009,59.09,0,2.52
Esik,KZ,2020-07-22 22:25:45,43.36,77.45,37,1007,71.6,40,3.0
Korla,CN,2020-07-22 22:20:20,41.76,86.15,50,1007,72.41,85,5.3
Piopio,NZ,2020-07-22 22:25:45,-38.47,175.02,81,1010,52.02,88,3.14
Morgan City,US,2020-07-22 22:25:46,29.7,-91.21,83,1014,89.01,40,2.6
Ust-Kuyga,RU,2020-07-22 22:25:46,70.02,135.6,36,1011,81.46,45,3.27
Den Helder,NL,2020-07-22 22:25:46,52.96,4.76,67,1021,57.2,90,1.5
Viedma,AR,2020-07-22 22:18:08,-40.81,-63.0,83,1029,44.01,100,1.79
San Carlos,VE,2020-07-22 22:25:46,9.66,-68.58,82,1009,82.44,25,0.81
Vezirköprü,TR,2020-07-22 22:25:46,41.14,35.45,77,1015,62.6,0,4.1
Burnie,AU,2020-07-22 22:25:46,-41.07,145.92,81,1024,46.0,38,1.34
Hay River,CA,2020-07-22 22:25:47,60.82,-115.8,93,1000,64.4,75,3.6
Atar,MR,2020-07-22 22:17:32,20.52,-13.05,22,1007,98.91,49,3.45
Bendigo,AU,2020-07-22 22:25:47,-36.77,144.28,59,1026,41.0,0,1.91
Dalbandin,PK,2020-07-22 22:25:47,28.89,64.41,55,1002,80.2,0,2.51
Saint-Joseph,RE,2020-07-22 22:25:47,-21.37,55.62,52,1018,68.0,40,4.1
Carutapera,BR,2020-07-22 22:25:47,-1.2,-46.02,81,1010,77.18,24,2.95
Port Montt,CL,2020-07-22 22:25:48,-41.47,-72.94,68,1027,48.2,48,2.6
Papetoai,PF,2020-07-22 22:25:48,-17.5,-149.87,65,1016,82.4,20,4.1
Portland,US,2020-07-22 22:17:59,45.52,-122.68,53,1012,80.01,20,1.24
Três Lagoas,BR,2020-07-22 22:22:45,-20.75,-51.68,38,1014,76.28,0,2.12
Grand Gaube,MU,2020-07-22 22:21:10,-20.01,57.66,62,1017,66.0,54,0.89
Harper,LR,2020-07-22 22:19:03,4.38,-7.72,85,1014,75.69,95,4.52
Jaisalmer,IN,2020-07-22 22:25:49,26.91,70.92,54,998,89.37,1,8.77
Vao,NC,2020-07-22 22:25:49,-22.67,167.48,73,1021,67.46,100,7.72
Hualmay,PE,2020-07-22 22:19:14,-11.1,-77.61,76,1015,63.95,7,4.87
Pokhara,NP,2020-07-22 22:23:08,28.23,83.98,80,1006,70.54,45,0.35
Amga,RU,2020-07-22 22:25:49,60.9,131.96,64,1012,60.21,27,3.06
Pevek,RU,2020-07-22 22:19:54,69.7,170.31,56,1011,52.34,100,5.09
Sidvokodvo,SZ,2020-07-22 22:25:50,-26.63,31.42,71,1027,52.77,0,1.03
Udala,ES,2020-07-22 22:25:50,43.08,-2.51,82,1021,68.0,90,3.1
Lompoc,US,2020-07-22 22:18:02,34.64,-120.46,60,1013,69.8,3,5.7
Yangi Marg`ilon,UZ,2020-07-22 22:23:08,40.43,71.72,36,1005,77.0,3,4.1
Jijiang,CN,2020-07-22 22:25:50,29.29,106.25,84,965,79.0,100,0.61
Tecpan,GT,2020-07-22 22:25:51,14.76,-90.99,88,1023,68.0,40,4.1
Guymon,US,2020-07-22 22:16:55,36.68,-101.48,41,1016,91.4,1,4.1
Verkhnevilyuysk,RU,2020-07-22 22:25:26,63.45,120.32,87,1006,59.92,0,1.94
Husavik,IS,2020-07-22 22:18:01,66.04,-17.34,81,1013,48.2,90,4.1
Buraidah,SA,2020-07-22 22:21:12,26.33,43.98,18,1001,96.8,20,5.1
Pontes e Lacerda,BR,2020-07-22 22:25:51,-15.23,-59.34,27,1009,78.19,0,0.68
Kumul,CN,2020-07-22 22:21:28,42.8,93.45,29,1004,79.59,99,3.08
Ulladulla,AU,2020-07-22 22:20:07,-35.35,150.47,81,1025,46.4,75,4.1
Carbonia,IT,2020-07-22 22:22:57,39.17,8.52,69,1017,79.0,0,2.6
Tegul'det,RU,2020-07-22 22:25:52,57.31,88.17,98,1005,45.27,54,2.22
Verkhoyansk,RU,2020-07-22 22:25:52,67.54,133.38,41,1011,74.68,25,4.91
Yashkul',RU,2020-07-22 22:25:52,46.17,45.34,37,1009,77.63,31,3.5
Maltahöhe,NA,2020-07-22 22:25:52,-24.83,16.98,39,1022,51.13,0,4.46
Quatre Cocos,MU,2020-07-22 22:19:32,-20.21,57.76,68,1018,69.8,75,5.1
Yerbogachën,RU,2020-07-22 22:25:53,61.28,108.01,85,1001,53.26,0,1.15
Lamesa,US,2020-07-22 22:25:53,32.74,-101.95,45,1016,86.0,40,4.1
Pangody,RU,2020-07-22 22:25:53,65.85,74.49,83,1017,46.17,0,5.0
Lethem,GY,2020-07-22 22:25:53,3.38,-59.8,83,1009,79.5,98,0.45
Dinard,FR,2020-07-22 22:25:53,48.63,-2.06,82,1021,62.01,99,1.5
Bosaso,SO,2020-07-22 22:25:54,11.28,49.18,42,1002,89.71,53,10.27
Shenjiamen,CN,2020-07-22 22:25:54,29.96,122.3,87,1006,79.56,84,9.82
Bar Harbor,US,2020-07-22 22:25:54,44.39,-68.2,57,1018,75.2,1,3.1
Miyako,JP,2020-07-22 22:25:54,39.64,141.95,88,1009,71.26,91,1.91
Tiksi,RU,2020-07-22 22:18:56,71.69,128.87,80,1011,52.74,74,1.67
Kaeo,NZ,2020-07-22 22:20:05,-35.1,173.78,3,1017,57.0,27,1.34
Province of Trapani,IT,2020-07-22 22:22:16,37.83,12.67,78,1015,77.0,0,1.5
Maroantsetra,MG,2020-07-22 22:25:55,-15.43,49.73,78,1017,67.12,81,4.42
Lüderitz,NA,2020-07-22 22:17:22,-26.65,15.16,72,1018,59.0,0,0.5
Loukhi,RU,2020-07-22 22:22:06,66.08,33.04,94,997,56.86,60,3.23
Kingston,JM,2020-07-22 22:25:55,18.0,-76.79,78,1013,87.01,40,3.1
Khislavichi,RU,2020-07-22 22:25:55,54.19,32.16,93,1011,50.11,0,4.43
Berdigestyakh,RU,2020-07-22 22:23:58,62.1,126.7,74,1010,63.09,0,2.36
Iquique,CL,2020-07-22 22:22:59,-20.22,-70.14,72,1018,60.8,90,4.6
Oktyabr'skiy,RU,2020-07-22 22:25:56,54.48,53.47,96,1003,57.58,100,1.17
Komárov,CZ,2020-07-22 22:25:56,49.81,13.86,100,1003,62.01,75,1.59
Grindavik,IS,2020-07-22 22:25:56,63.84,-22.43,76,1013,50.0,75,3.1
Ayagoz,KZ,2020-07-22 22:25:56,47.97,80.44,64,1007,63.81,97,4.22
Meulaboh,ID,2020-07-22 22:24:34,4.14,96.13,88,1009,75.76,100,0.3
Labuhan,ID,2020-07-22 22:19:37,-6.88,112.21,86,1009,75.33,56,3.68
Diré,ML,2020-07-22 22:25:56,12.28,-10.97,90,1012,76.51,100,1.12
Ayamé,CI,2020-07-22 22:25:57,5.61,-3.16,93,1014,73.45,98,2.37
Taltal,CL,2020-07-22 22:21:30,-25.4,-70.48,71,1018,56.89,1,1.93
Matadi,CD,2020-07-22 22:25:57,-5.82,13.45,73,1014,71.31,78,1.73
Karaton,ID,2020-07-22 22:25:57,-6.34,106.1,83,1008,78.8,20,1.5
Amarante,BR,2020-07-22 22:25:57,-6.24,-42.85,41,1011,83.34,55,4.23
Xiaoweizhai,CN,2020-07-22 22:25:57,26.19,107.51,93,1007,68.58,65,2.07
Isangel,VU,2020-07-22 22:19:07,-19.55,169.27,65,1018,77.0,75,2.6
Keti Bandar,PK,2020-07-22 22:25:58,24.14,67.45,75,1003,85.1,91,7.93
Monte Patria,CL,2020-07-22 22:25:58,-30.69,-70.95,50,1019,53.67,31,1.63
Russell,US,2020-07-22 22:25:58,32.35,-85.2,44,1016,96.8,1,3.1
Tafresh,IR,2020-07-22 22:25:58,34.69,50.01,18,1007,73.04,49,2.34
Los Llanos de Aridane,ES,2020-07-22 22:20:31,28.66,-17.92,73,1020,73.4,15,7.2
Flinders,AU,2020-07-22 22:17:40,-34.58,150.86,85,1025,48.99,11,2.57
Acaraú,BR,2020-07-22 22:17:41,-2.89,-40.12,73,1011,77.41,2,6.29
Naryan-Mar,RU,2020-07-22 22:25:59,67.67,53.09,70,1012,61.27,0,4.57
Mandalgovi,MN,2020-07-22 22:25:59,45.76,106.27,37,1000,75.11,100,5.77
Lerwick,GB,2020-07-22 22:25:59,60.15,-1.15,87,1016,55.4,71,5.1
Churhat,IN,2020-07-22 22:26:00,24.43,81.67,73,1002,82.65,48,2.07
Port Angeles,US,2020-07-22 22:21:48,48.12,-123.43,72,1013,64.4,20,6.2
Synya,RU,2020-07-22 22:26:00,65.37,58.04,65,1014,60.39,0,2.35
Bethel,US,2020-07-22 22:17:37,41.37,-73.41,88,1016,82.99,75,3.01
Kavaratti,IN,2020-07-22 22:20:55,10.57,72.64,81,1005,81.66,78,5.27
Río Gallegos,AR,2020-07-22 22:19:09,-51.62,-69.22,85,1030,19.4,0,3.1
Magadan,RU,2020-07-22 22:26:00,59.57,150.8,68,1018,58.26,38,1.61
Necochea,AR,2020-07-22 22:24:24,-38.55,-58.74,61,1008,46.99,100,9.83
Mūlki,IN,2020-07-22 22:26:01,13.1,74.8,94,1005,78.8,75,0.74
Lorengau,PG,2020-07-22 22:19:40,-2.02,147.27,74,1009,83.91,21,3.8
Maningrida,AU,2020-07-22 22:26:01,-12.07,134.27,88,1013,61.03,31,3.63
Yur’yevets,RU,2020-07-22 22:26:01,57.32,43.1,95,1003,58.6,40,3.89
San Quintín,MX,2020-07-22 22:26:01,30.48,-115.95,68,1009,71.44,9,7.13
Halifax,CA,2020-07-22 22:21:32,44.65,-63.57,56,1017,80.01,11,0.45
Marsaxlokk,MT,2020-07-22 22:23:32,35.84,14.54,73,1015,77.0,0,3.1
Nelson Bay,AU,2020-07-22 22:26:02,-32.72,152.15,100,1025,48.0,40,4.1
Jorochito,BO,2020-07-22 22:26:02,-18.05,-63.43,69,1008,80.6,40,4.1
Yeppoon,AU,2020-07-22 22:20:45,-23.13,150.73,93,1020,59.0,90,3.6
Jalu,LY,2020-07-22 22:26:02,29.03,21.55,55,1010,77.49,0,6.48
Emba,KZ,2020-07-22 22:26:03,48.83,58.14,64,1003,69.49,0,4.87
Mayo,US,2020-07-22 22:26:03,38.89,-76.51,88,1019,73.4,75,2.6
Itarema,BR,2020-07-22 22:17:51,-2.92,-39.92,72,1011,77.68,3,6.28
Mangai,CD,2020-07-22 22:26:03,-4.05,19.53,41,1010,76.87,100,0.69
Boké,GN,2020-07-22 22:26:03,10.94,-14.3,91,1013,75.88,99,1.69
Talcahuano,CL,2020-07-22 22:20:50,-36.72,-73.12,81,1021,51.8,75,0.85
Palmer,US,2020-07-22 22:20:38,42.16,-72.33,58,1014,86.0,75,1.76
Novo Aripuanã,BR,2020-07-22 22:26:04,-5.12,-60.38,55,1007,84.63,69,1.24
Brownwood,US,2020-07-22 22:26:04,31.71,-98.99,30,1013,98.6,20,2.6
Ambon City,ID,2020-07-22 22:20:32,-3.7,128.18,83,1009,78.8,19,3.1
Spencer,US,2020-07-22 22:26:04,43.14,-95.14,42,1017,84.2,75,4.1
Baghdad,IQ,2020-07-22 22:26:04,33.34,44.4,31,996,87.8,0,1.5
Taoudenni,ML,2020-07-22 22:21:13,22.68,-3.98,17,1008,104.61,55,9.92
Namatanai,PG,2020-07-22 22:26:04,-3.67,152.43,76,1010,81.36,80,3.75
Alofi,NU,2020-07-22 22:20:11,-19.06,-169.92,88,1017,77.0,75,5.1
Banda Aceh,ID,2020-07-22 22:22:54,5.56,95.32,79,1008,77.63,100,4.07
Ostrovnoy,RU,2020-07-22 22:26:05,68.05,39.51,77,1003,59.45,24,3.93
Kesova Gora,RU,2020-07-22 22:26:05,57.58,37.29,94,1003,50.47,5,3.36
Amarante do Maranhão,BR,2020-07-22 22:26:05,-5.57,-46.74,50,1010,79.84,84,1.64
Katsuura,JP,2020-07-22 22:26:05,35.13,140.3,91,1010,75.99,100,0.89
Bonthe,SL,2020-07-22 22:26:06,7.53,-12.51,90,1013,76.42,100,3.47
Huangmei,CN,2020-07-22 22:26:06,30.19,116.03,80,1006,79.61,100,1.01
Mokobeng,BW,2020-07-22 22:26:06,-23.0,27.67,64,1025,48.18,0,1.2
Luang Prabang,LA,2020-07-22 22:26:06,19.89,102.13,87,1010,72.18,17,0.22
Karīmpur,IN,2020-07-22 22:26:06,23.97,88.62,92,1000,79.38,97,3.13
Ugoofaaru,MV,2020-07-22 22:17:55,5.67,73.0,77,1006,82.42,99,9.68
Gizo Government Station,SB,2020-07-22 22:20:23,-8.1,156.84,75,1011,81.95,61,3.38
Natagaima,CO,2020-07-22 22:26:07,3.62,-75.09,44,1011,87.78,24,1.2
Young,UY,2020-07-22 22:26:07,-32.68,-57.63,91,1014,60.01,100,0.89
St. George's,GD,2020-07-22 22:22:53,12.06,-61.75,74,1011,84.2,40,7.7
Santa Maria,BR,2020-07-22 22:26:07,-29.68,-53.81,61,1013,77.0,100,1.5
Pictou,CA,2020-07-22 22:21:34,45.68,-62.72,52,1017,79.0,86,0.45
Bāndarban,BD,2020-07-22 22:26:07,22.2,92.23,97,1005,75.25,100,1.67
Māngrol,IN,2020-07-22 22:26:08,21.12,70.12,82,1003,82.96,100,6.01
Farim,GW,2020-07-22 22:26:08,12.48,-15.22,89,1010,84.2,100,2.1
Kununurra,AU,2020-07-22 22:19:21,-15.77,128.73,41,1016,55.4,21,2.1
Shache,CN,2020-07-22 22:26:08,38.42,77.24,21,1005,73.13,24,5.37
Lake Havasu City,US,2020-07-22 22:26:08,34.48,-114.32,13,1006,108.0,1,2.1
Dhidhdhoo,MV,2020-07-22 22:26:08,6.88,73.1,76,1006,82.33,100,6.56
Thinadhoo,MV,2020-07-22 22:17:27,0.53,72.93,75,1007,83.14,69,5.67
Carlsbad,US,2020-07-22 22:21:37,33.16,-117.35,69,1012,78.01,90,6.2
Broome,US,2020-07-22 22:22:31,42.25,-75.83,54,1015,82.99,75,5.7
Departamento de Maldonado,UY,2020-07-22 22:19:43,-34.67,-54.92,100,1010,61.0,90,4.1
Sioux Lookout,CA,2020-07-22 22:26:10,50.1,-91.92,32,1017,80.6,75,2.1
Yangjiang,CN,2020-07-22 22:26:10,21.85,111.97,85,1008,79.34,2,0.36
Kisangani,CD,2020-07-22 22:26:10,0.52,25.2,80,1011,72.37,98,1.02
Aberdeen,GB,2020-07-22 22:18:57,57.14,-2.1,100,1014,55.0,75,2.6
Chik,RU,2020-07-22 22:26:10,54.99,82.43,100,1007,46.4,90,1.0
Yaan,NG,2020-07-22 22:26:10,7.38,8.57,90,1013,73.85,91,4.16
Bonavista,CA,2020-07-22 22:21:24,48.65,-53.11,67,1013,64.15,88,0.06
Kinshasa,CD,2020-07-22 22:20:39,-4.32,15.32,83,1013,77.0,95,2.6
Lata,PT,2020-07-22 22:19:08,40.16,-8.33,93,1015,68.0,0,0.82
Bereda,ES,2020-07-22 22:26:11,43.27,-7.54,99,1018,64.99,10,1.34
Krasnyy Yar,RU,2020-07-22 22:26:11,46.53,48.35,64,1007,71.01,5,2.0
Tobane,BW,2020-07-22 22:26:11,-21.95,27.9,63,1025,50.14,0,2.27
Port Hedland,AU,2020-07-22 22:17:56,-20.32,118.57,54,1016,57.2,0,3.1
Vengerovo,RU,2020-07-22 22:26:12,55.68,76.75,93,1009,49.77,0,2.94
Camopi,GF,2020-07-22 22:26:12,3.17,-52.32,94,1010,73.08,100,1.0
São João da Barra,BR,2020-07-22 22:20:20,-21.64,-41.05,69,1017,77.0,0,3.1
Mahibadhoo,MV,2020-07-22 22:26:12,3.78,72.97,76,1007,82.65,85,9.06
Jacareacanga,BR,2020-07-22 22:26:12,-6.22,-57.75,50,1008,83.43,1,0.56
Havøysund,NO,2020-07-22 22:26:12,71.0,24.66,100,1009,46.4,75,9.8
Sittwe,MM,2020-07-22 22:26:12,20.15,92.9,85,1005,79.95,100,3.16
Rodrigues Alves,BR,2020-07-22 22:26:13,-7.74,-72.65,62,1009,89.6,40,1.5
Ketchikan,US,2020-07-22 22:21:05,55.34,-131.65,63,1013,66.2,40,5.1
Toamasina,MG,2020-07-22 22:26:13,-18.17,49.38,77,1019,68.0,75,7.2
Zhangjiakou,CN,2020-07-22 22:26:13,40.81,114.88,72,1010,67.66,17,0.84
Atbasar,KZ,2020-07-22 22:26:13,51.8,68.33,67,1006,61.86,99,4.46
Puerto Ayacucho,VE,2020-07-22 22:20:49,5.66,-67.62,88,1009,77.0,75,1.79
Jiangyou,CN,2020-07-22 22:26:14,31.77,104.72,93,1004,72.21,100,0.94
Thunder Bay,CA,2020-07-22 22:25:07,48.4,-89.32,49,1017,73.4,75,7.2
Keminmaa,FI,2020-07-22 22:26:14,65.86,24.82,100,994,59.0,90,5.7
Gravdal,NO,2020-07-22 22:23:24,68.12,13.5,81,1012,52.12,100,5.59
Dhārchula,IN,2020-07-22 22:17:05,29.85,80.53,69,1008,67.57,89,1.07
Plettenberg Bay,ZA,2020-07-22 22:17:37,-34.05,23.37,60,1022,59.5,0,2.09
Zhigansk,RU,2020-07-22 22:17:59,66.77,123.37,70,1009,60.24,26,9.21
Krivosheino,RU,2020-07-22 22:26:15,57.34,83.93,91,1007,45.27,66,2.57
Båtsfjord,NO,2020-07-22 22:26:15,70.63,29.72,93,1004,53.6,40,1.0
Morón,AR,2020-07-22 22:26:15,-34.65,-58.62,99,1008,60.01,100,1.24
Gilgit,PK,2020-07-22 22:26:15,35.92,74.31,33,1014,74.01,0,0.49
Benghazi,LY,2020-07-22 22:17:52,32.12,20.07,76,1013,76.55,0,4.72
Atkinson,US,2020-07-22 22:26:15,42.84,-71.15,69,1017,78.01,1,3.6
Wenling,CN,2020-07-22 22:26:15,28.37,121.36,51,1008,82.0,100,4.89
Fairbanks,US,2020-07-22 22:14:06,64.84,-147.72,82,1013,62.01,75,1.5
La Rioja,ES,2020-07-22 22:26:15,42.25,-2.5,65,1018,77.0,21,3.1
Dābhol,IN,2020-07-22 22:26:16,17.6,73.17,91,1005,78.82,100,1.59
Takoradze,GH,2020-07-22 22:17:45,4.88,-1.76,90,1014,74.97,87,4.05
Shingū,JP,2020-07-22 22:19:50,33.73,135.98,91,1010,73.31,100,1.61
Nadym,RU,2020-07-22 22:26:16,65.53,72.52,82,1018,44.82,1,4.83
Ligayan,PH,2020-07-22 22:26:16,4.65,119.47,77,1007,82.29,97,4.21
Marsá Maţrūḩ,EG,2020-07-22 22:26:17,31.35,27.25,74,1007,75.45,0,4.33
Zeya,RU,2020-07-22 22:19:20,53.75,127.27,65,1012,66.04,99,1.73
Yafran,LY,2020-07-22 22:26:17,32.06,12.53,78,1017,65.1,0,2.33
Laguna,US,2020-07-22 22:26:17,38.42,-121.42,30,1008,87.01,1,5.7
Giddarbāha,IN,2020-07-22 22:26:17,30.2,74.67,54,999,85.55,0,1.73
Porto-Novo,BJ,2020-07-22 22:21:09,6.5,2.6,88,1012,77.0,40,3.6
Tarakan,ID,2020-07-22 22:26:18,3.3,117.63,89,1008,77.54,69,3.93
Caraz,PE,2020-07-22 22:26:18,-9.05,-77.81,43,1014,66.63,49,2.88
Jasper,US,2020-07-22 22:26:18,37.2,-94.35,44,1015,93.2,75,3.1
Tocopilla,CL,2020-07-22 22:26:18,-22.09,-70.2,68,1017,61.11,40,4.97
Viseu,PT,2020-07-22 22:26:18,40.66,-7.91,50,959,73.0,0,0.46
Moche,PE,2020-07-22 22:26:18,-8.17,-79.01,78,1013,63.18,26,4.3
Khani,GE,2020-07-22 22:26:18,41.96,42.96,94,1012,69.8,75,1.0
Ixtapa,MX,2020-07-22 22:17:12,20.7,-105.2,70,1011,87.8,75,6.2
Fereydūnkenār,IR,2020-07-22 22:26:19,36.69,52.52,94,1007,78.8,75,3.1
Arrondissement de Saint-Denis,FR,2020-07-22 22:26:19,48.92,2.33,45,1020,70.0,92,1.5
Bairiki Village,KI,2020-07-22 22:26:19,1.33,172.98,74,1010,84.2,20,5.7
Shyryayeve,UA,2020-07-22 22:26:19,47.38,30.2,69,1018,63.57,53,2.66
Kargopol',RU,2020-07-22 22:26:19,61.51,38.95,96,997,56.53,93,3.52
Sovetskoye,RU,2020-07-22 22:26:19,52.29,85.41,90,1008,55.04,31,1.45
Turbat,PK,2020-07-22 22:26:20,26.0,63.04,70,1004,84.04,62,3.45
Kloulklubed,PW,2020-07-22 22:26:02,7.04,134.26,88,1010,77.0,75,2.62
San Rafael,AR,2020-07-22 22:26:20,-34.62,-68.33,66,1023,42.3,82,11.42
Anaconda,US,2020-07-22 22:26:20,46.13,-112.94,16,1014,87.8,40,4.6
Lindenberg,DE,2020-07-22 22:26:20,49.38,8.1,51,1017,68.0,32,2.55
Zhuanghe,CN,2020-07-22 22:26:20,39.7,122.99,82,1006,73.99,100,1.34
Anito,PH,2020-07-22 22:26:21,12.45,125.29,82,1009,79.92,22,1.73
Sayyan,YE,2020-07-22 22:17:22,15.17,44.32,60,1004,64.92,45,4.48
Birjand,IR,2020-07-22 22:26:21,32.87,59.22,15,1012,78.8,0,4.1
Santa Cruz,MA,2020-07-22 22:26:21,30.42,-9.6,83,1014,71.6,0,2.34
Poum,NC,2020-07-22 22:26:21,-20.23,164.02,72,1018,70.97,84,8.06
Ankang,CN,2020-07-22 22:26:22,32.68,109.02,90,1006,72.77,100,0.71
Ayní,TJ,2020-07-22 22:26:22,39.39,68.54,39,1004,68.85,21,1.12
Cocobeach,GA,2020-07-22 22:26:22,1.0,9.58,83,1013,78.8,40,2.1
Evensk,RU,2020-07-22 22:26:22,61.95,159.23,60,1017,59.94,12,1.94
Asău,RO,2020-07-22 22:26:22,46.43,26.4,98,1017,60.01,99,0.9
Balkhash,KZ,2020-07-22 22:26:22,46.84,74.98,66,1006,70.52,0,5.93
Sola,VU,2020-07-22 22:20:25,-13.88,167.55,65,1014,80.6,75,4.6
Baltasi,RU,2020-07-22 22:26:23,56.35,50.21,89,1004,60.48,91,1.45
Erenhot,CN,2020-07-22 22:20:34,43.65,111.98,46,1006,77.2,100,3.35
Valparaíso,CL,2020-07-22 22:22:56,-33.04,-71.63,62,1020,55.4,0,3.1
Hambantota,LK,2020-07-22 22:20:13,6.12,81.12,100,1007,77.0,40,1.5
Carlisle,US,2020-07-22 22:26:23,40.2,-77.19,83,1017,75.2,20,3.1
Varna,BG,2020-07-22 22:26:23,43.22,27.92,77,1015,68.0,0,0.5
Weligama,LK,2020-07-22 22:26:24,5.97,80.42,90,1006,78.3,93,1.96
Volgograd,RU,2020-07-22 22:26:24,48.72,44.5,60,1008,68.0,0,4.0
Togur,RU,2020-07-22 22:26:24,58.36,82.83,87,1007,45.32,85,2.79
Govindgarh,IN,2020-07-22 22:26:24,27.5,76.98,60,1000,83.82,24,1.35
Olafsvik,IS,2020-07-22 22:26:03,64.89,-23.71,72,1013,49.32,22,4.08
Chabahar,IR,2020-07-22 22:26:24,25.29,60.64,78,1003,84.07,12,3.98
Borger,NL,2020-07-22 22:26:25,52.92,6.79,93,1021,57.0,69,0.5
Hofn,IS,2020-07-22 22:19:16,64.25,-15.21,81,1013,50.32,96,4.06
Mattru,SL,2020-07-22 22:19:26,7.62,-11.83,96,1013,74.03,100,1.78
Dudinka,RU,2020-07-22 22:26:25,69.41,86.18,87,1015,50.0,0,10.0
Kuvshinovo,RU,2020-07-22 22:26:25,57.03,34.17,89,1004,52.11,56,4.04
Campina Verde,BR,2020-07-22 22:26:25,-19.54,-49.49,37,1015,73.49,24,1.63
Timberlake,US,2020-07-22 22:26:26,37.32,-79.26,65,1018,82.4,40,1.5
Svarstad,NO,2020-07-22 22:26:26,59.4,9.97,1,1013,50.0,15,1.74
Aguçadoura,PT,2020-07-22 22:26:26,41.43,-8.78,88,1018,75.99,0,0.94
Lagoa,PT,2020-07-22 22:24:30,39.05,-27.98,71,1028,69.75,0,1.44
Saint-Augustin,CA,2020-07-22 22:17:38,51.23,-58.65,51,1011,67.46,100,2.86
Inta,RU,2020-07-22 22:26:26,66.03,60.17,75,1016,61.79,0,5.39
Yumen,CN,2020-07-22 22:17:48,40.28,97.2,41,1009,70.66,100,0.75
Alta Floresta,BR,2020-07-22 22:26:27,-9.88,-56.09,33,1009,82.15,0,1.52
Dwārka,IN,2020-07-22 22:26:27,22.24,68.97,79,1003,83.68,52,6.99
Paamiut,GL,2020-07-22 22:20:36,61.99,-49.67,83,1004,46.8,75,2.71
